City,Latitude,Longitude,Temperature,Max Temp,Humidity,Cloudiness,Wind Speed,Country
Pevek,69.7008,170.3133,47.71,47.71,66,0,12.03,RU
Whitehorse,60.7161,-135.0538,64.98,66.02,61,75,5.75,CA
Tilichiki,60.4667,166.1,54.61,54.61,65,78,4.38,RU
Bredasdorp,-34.5322,20.0403,42.51,42.51,83,3,3.65,ZA
Bonfim,3.0833,-59.95,78.28,78.28,80,46,4.88,BR
Ostrovnoy,68.0531,39.5131,56.1,56.1,79,87,5.35,RU
Lebu,-37.6167,-73.65,47.01,47.01,83,95,5.3,CL
Saint-Louis,16.3333,-15.0,82.04,82.04,78,100,14.99,SN
Thinadhoo,0.5333,72.9333,80.73,80.73,76,100,19.69,MV
Kapaa,22.0752,-159.319,82.94,85.98,62,0,14.97,US
Pflugerville,30.4394,-97.62,100.06,103.23,30,0,6.91,US
Atuona,-9.8,-139.0333,76.87,76.87,75,9,14.41,PF
Grindavik,63.8424,-22.4338,48.67,49.95,81,75,11.5,IS
Cape Town,-33.9258,18.4232,50.32,52.92,80,0,6.91,ZA
Punta Arenas,-53.15,-70.9167,42.91,42.91,75,75,13.8,CL
Lumberton,34.6182,-79.0086,89.73,95.31,47,62,10.65,US
Sørland,67.667,12.6934,53.46,53.46,87,98,10.49,NO
Hilo,19.7297,-155.09,82.53,84.27,63,20,12.66,US
La Grande,45.3246,-118.0877,92.25,97.02,17,72,10.04,US
Tarauacá,-8.1614,-70.7656,81.88,81.88,61,99,1.99,BR
San Rafael,-34.6177,-68.3301,54.43,54.43,32,31,5.88,AR
De Aar,-30.6497,24.0123,39.87,39.87,54,0,12.1,ZA
Swift Current,50.2834,-107.8014,85.01,85.01,42,20,4.61,CA
Helong,42.5397,128.9972,72.68,72.68,99,100,1.3,CN
Port Elizabeth,-33.918,25.5701,49.32,50.29,83,0,9.22,ZA
Nālūt,30.3333,10.85,83.01,83.01,30,1,11.97,LY
Ambulu,-8.345,113.6058,70.57,70.57,90,33,2.64,ID
Vaini,-21.2,-175.2,78.96,78.96,94,40,6.91,TO
Khatanga,71.9667,102.5,44.76,44.76,73,100,7.99,RU
Jamestown,42.097,-79.2353,77.38,78.19,48,20,8.05,US
Busselton,-33.65,115.3333,57.52,57.52,82,86,27.2,AU
Bluff,-46.6,168.3333,45.81,45.81,76,51,15.17,NZ
Khasan,42.4308,130.6434,72.0,72.0,100,100,3.8,RU
Bethel,41.3712,-73.414,80.26,83.25,59,86,6.46,US
Clyde River,70.4692,-68.5914,37.63,37.63,93,75,8.05,CA
Sitka,57.0531,-135.33,57.09,57.09,88,100,5.75,US
Rikitea,-23.1203,-134.9692,72.18,72.18,74,100,22.57,PF
Lerwick,60.1545,-1.1494,53.6,53.6,82,41,9.17,GB
Mar del Plata,-38.0023,-57.5575,55.18,56.08,85,0,10.0,AR
Taylorville,39.5489,-89.2945,80.58,81.93,69,75,11.5,US
Bengkulu,-3.8004,102.2655,75.02,75.02,88,90,4.18,ID
Mauá,-23.6678,-46.4614,57.85,62.4,87,5,3.8,BR
Taltal,-25.4,-70.4833,59.23,59.23,82,24,5.28,CL
Ushuaia,-54.8,-68.3,38.86,38.86,87,40,8.05,AR
Nanortalik,60.1432,-45.2371,47.23,47.23,91,70,7.31,GL
Puerto Ayora,-0.7393,-90.3518,72.55,75.16,87,85,5.99,EC
Hobyo,5.3505,48.5268,75.36,75.36,86,0,23.98,SO
Narsaq,60.9167,-46.05,57.42,57.42,80,84,4.09,GL
Opuwo,-18.0607,13.84,51.13,51.13,49,4,7.54,NA
Youghal,51.95,-7.8506,59.45,60.01,90,95,6.17,IE
Hong Kong,22.2855,114.1577,84.2,85.32,82,5,1.99,HK
Longyearbyen,78.2186,15.6401,49.84,49.84,76,0,11.5,SJ
Babol,36.5513,52.679,76.69,76.69,77,33,2.64,IR
Dikson,73.5069,80.5464,40.87,40.87,94,100,14.58,RU
Mataura,-46.1927,168.8643,45.48,45.48,86,24,5.75,NZ
Albany,42.6001,-73.9662,78.4,81.18,59,99,4.63,US
Flinders,-34.5833,150.8552,55.92,58.05,79,79,7.0,AU
Carnarvon,-24.8667,113.6333,69.6,69.6,57,100,10.25,AU
Şuraabad,40.8192,49.4687,78.3,78.3,68,4,6.64,AZ
Panubigan,7.4281,123.3466,79.16,79.16,82,100,5.97,PH
Mwaro Province,-3.5,29.6667,56.68,56.68,83,54,3.65,BI
Fort-Shevchenko,44.5086,50.263,80.01,80.01,63,2,10.51,KZ
Sanmenxia,34.7747,111.1814,76.78,76.78,86,0,7.14,CN
Chokurdakh,70.6333,147.9167,70.77,70.77,47,100,12.46,RU
Severo-Kuril'sk,50.6789,156.125,53.19,53.19,88,100,10.09,RU
Bolobo,-2.1667,16.2333,75.16,75.16,57,14,4.45,CD
Fairbanks,64.8378,-147.7164,61.18,63.3,87,100,4.61,US
Qaanaaq,77.484,-69.3632,46.33,46.33,60,66,1.41,GL
Kavaratti,10.5669,72.642,80.44,80.44,80,100,23.89,IN
Yucca Valley,34.1142,-116.4322,89.29,94.14,41,59,11.99,US
Isangel,-19.55,169.2667,75.04,75.04,84,96,14.7,VU
Ixtapa,20.7,-105.2,85.23,87.22,74,100,6.91,MX
Wasilla,61.5814,-149.4394,64.83,66.52,71,75,5.75,US
Mossamedes,-15.1961,12.1522,57.51,57.51,82,12,11.3,AO
Aksarka,66.5606,67.7975,47.7,47.7,86,33,4.65,RU
Salme,28.0369,85.0942,64.09,64.09,96,100,0.54,NP
Alta Floresta,-9.8756,-56.0861,82.22,82.22,51,1,2.3,BR
George,-33.963,22.4617,42.35,42.35,87,0,4.61,ZA
Diré,12.2833,-10.9667,74.32,74.32,94,98,1.21,ML
Olinda,-8.0089,-34.8553,78.53,78.53,78,40,9.22,BR
Takoradze,4.8845,-1.7554,73.8,73.8,83,74,12.71,GH
Torbay,47.6666,-52.7314,72.37,73.76,68,20,21.85,CA
Kushiro,42.975,144.3747,67.15,67.15,82,75,5.75,JP
Asău,46.4333,26.4,63.52,63.52,94,95,6.2,RO
Rawson,-43.3002,-65.1023,48.58,48.58,65,97,6.76,AR
Pirapora,-17.345,-44.9419,74.52,74.52,34,3,2.1,BR
Kavieng,-2.5744,150.7967,83.55,83.55,73,94,13.6,PG
Vestmannaeyjar,63.4427,-20.2734,50.59,50.59,72,64,18.23,IS
Verkhnyaya Inta,65.9811,60.3094,54.41,54.41,65,9,10.31,RU
Øksfjord,70.2396,22.3479,57.34,57.38,76,96,2.17,NO
Esperance,-33.8667,121.9,47.07,47.07,63,0,15.01,AU
Mahajanga,-15.7167,46.3167,71.62,71.62,73,20,2.3,MG
Seddon,-37.8068,144.8916,47.77,50.52,77,40,4.0,AU
Bambous Virieux,-20.3428,57.7575,70.05,70.21,73,75,11.5,MU
Olovyannaya,50.95,115.5667,66.47,66.47,61,44,4.9,RU
Hithadhoo,-0.6,73.0833,80.47,80.47,74,100,16.08,MV
Butaritari,3.0707,172.7902,81.34,81.34,78,58,13.89,KI
Berëzovka,53.7214,25.4993,61.86,61.86,91,100,10.87,BY
Tuktoyaktuk,69.4541,-133.0374,62.6,62.6,59,40,5.75,CA
Mayo,38.8876,-76.5119,75.52,79.07,85,100,3.0,US
Paamiut,61.994,-49.6678,46.53,46.53,83,73,5.44,GL
Acapulco de Juárez,16.8634,-99.8901,87.62,87.62,70,40,12.66,MX
Kumul,42.8,93.45,81.05,81.05,29,50,6.44,CN
Kahului,20.8947,-156.47,87.82,87.82,40,20,19.57,US
Boca do Acre,-8.7522,-67.3978,82.45,82.45,52,38,2.93,BR
Nouadhibou,20.931,-17.0347,75.18,75.18,78,16,9.22,MR
Hobart,-42.8794,147.3294,49.33,51.26,73,75,5.75,AU
Napa,38.4832,-122.3344,77.95,91.04,46,94,8.46,US
Whitianga,-36.8333,175.7,55.94,55.94,61,3,7.27,NZ
Qaqortoq,60.7167,-46.0333,47.97,47.97,87,74,3.02,GL
Whitecourt,54.1502,-115.6855,69.04,69.04,68,100,11.5,CA
Pemberton,50.3164,-122.8027,96.49,96.49,20,1,6.42,CA
Sayyan,15.1718,44.3244,59.72,59.72,75,16,3.67,YE
Port Lincoln,-34.7333,135.8667,53.98,53.98,77,3,12.48,AU
Kargasok,59.0556,80.8572,51.01,51.01,78,100,10.87,RU
Las Cruces,32.3123,-106.7783,96.12,101.05,24,0,9.22,US
Castro,-24.7911,-50.0119,53.8,53.8,75,0,1.41,BR
Guerrero Negro,27.9769,-114.0611,84.18,84.18,45,13,13.29,MX
Avarua,-21.2078,-159.775,78.85,78.85,65,20,16.11,CK
Sabzawār,36.2126,57.6819,79.88,79.88,34,0,13.8,IR
Prado,-17.3411,-39.2208,70.5,70.5,91,61,7.36,BR
Bara,10.3744,10.7288,74.1,74.1,89,94,7.02,NG
Yinchuan,38.4681,106.2731,77.27,77.27,64,94,11.79,CN
Ancud,-41.8697,-73.8203,44.22,44.22,82,100,0.98,CL
Zhezkazgan,47.8043,67.7144,69.13,69.13,46,74,8.25,KZ
Sitrah,26.1547,50.6206,93.87,94.35,71,0,8.05,BH
Richards Bay,-28.783,32.0377,62.01,62.01,73,100,9.8,ZA
Kathu,7.9178,98.3332,86.76,86.76,69,99,10.54,TH
Oromocto,45.8351,-66.4792,82.11,82.33,54,40,6.91,CA
Urshel'skiy,55.6783,40.2169,56.32,56.32,68,88,3.49,RU
Saint Paul Harbor,57.79,-152.4072,60.31,60.31,77,100,0.0,US
Lima,-12.0432,-77.0282,61.9,61.9,80,100,10.36,PE
Baiersbronn,48.5,8.3833,65.39,66.2,61,10,2.01,DE
Kapoeta,4.7717,33.5903,71.08,71.08,82,42,2.71,SS
Imeni Morozova,59.9757,31.0376,60.94,60.94,77,100,4.14,RU
Ossora,59.2353,163.0719,58.05,58.05,73,48,9.91,RU
Kruisfontein,-34.0033,24.7314,45.46,45.46,80,1,7.2,ZA
Zaozyornoye,45.1582,33.2787,74.43,74.43,69,9,6.11,UA
Kimbe,-5.5502,150.1429,85.23,85.23,64,72,3.06,PG
Walvis Bay,-22.9575,14.5053,54.55,55.09,71,0,6.91,NA
Shubarkuduk,49.1447,56.4872,72.03,72.03,49,93,4.83,KZ
Pevek,69.7008,170.3133,47.71,47.71,66,0,12.03,RU
Lasem,-6.6922,111.4527,74.53,74.53,87,85,5.17,ID
Pisco,-13.7,-76.2167,62.65,62.65,77,20,8.05,PE
Antalaha,-14.9003,50.2788,66.54,66.54,92,34,5.73,MG
Shakiso,5.75,38.9167,59.32,59.32,90,100,2.42,ET
Yellowknife,62.456,-114.3525,64.92,64.92,45,40,4.61,CA
Esim,4.8699,-2.2405,74.48,74.48,82,79,12.71,GH
Keflavik,64.0049,-22.5624,48.63,49.91,81,75,11.5,IS
Tautira,-17.7333,-149.15,76.86,76.86,70,62,23.49,PF
Cidreira,-30.1811,-50.2056,59.29,59.29,85,86,10.2,BR
Redcar,54.6166,-1.06,58.87,60.35,58,96,1.99,GB
Pine Bluff,34.2284,-92.0032,78.73,78.73,83,20,4.61,US
Saint-Ambroise,48.5501,-71.3324,82.51,82.72,55,55,8.75,CA
Nishifukuma,33.7667,130.4667,86.04,86.29,68,10,6.26,JP
Thompson,55.7435,-97.8558,64.56,64.56,63,75,0.0,CA
Beyneu,45.3167,55.2,81.14,81.14,41,4,9.51,KZ
Saint-Augustin,51.226,-58.6502,71.35,71.35,56,85,9.17,CA
Tazovsky,67.4667,78.7,43.23,43.23,81,6,10.67,RU
Chapais,49.7834,-74.8492,78.58,78.58,63,98,6.02,CA
Haines Junction,60.7522,-137.5108,62.55,62.55,63,95,5.75,CA
Mandalgovi,45.7625,106.2708,67.51,67.51,49,99,12.12,MN
Wajima,37.4,136.9,85.24,85.24,71,97,3.71,JP
São Filipe,14.8961,-24.4956,75.79,75.79,75,42,5.64,CV
Kwang Binh,17.4833,106.6,80.17,80.17,81,8,3.47,VN
Turukhansk,65.8167,87.9833,46.4,46.4,76,99,14.99,RU
Pasni,25.2631,63.471,81.19,81.19,85,94,11.5,PK
Harper,4.375,-7.7169,75.18,75.18,81,100,13.42,LR
Stornoway,58.2093,-6.3865,47.82,51.93,89,43,2.3,GB
Ekuvukeni,-28.4675,30.1551,47.73,47.73,71,100,5.17,ZA
Ilulissat,69.2167,-51.1,60.82,60.82,39,40,16.11,GL
Arraial do Cabo,-22.9661,-42.0278,66.06,66.06,72,0,3.44,BR
Rabo de Peixe,37.8,-25.5833,71.11,71.11,78,75,3.44,PT
Tottori-shi,35.5,134.2333,86.07,86.07,62,75,6.91,JP
Katherine,-14.4667,132.2667,61.12,61.12,67,80,5.75,AU
Bilma,18.6853,12.9164,88.59,88.59,42,88,3.02,NE
Praia,14.9215,-23.5087,77.54,77.54,73,75,13.8,CV
Lavrentiya,65.5833,-171.0,48.38,48.38,69,52,3.42,RU
Umluj,25.0213,37.2685,85.5,85.5,57,39,8.25,SA
Souillac,-20.5167,57.5167,70.18,70.18,73,75,11.5,MU
Otane,-39.8833,176.6333,51.01,51.01,70,0,2.98,NZ
Mogadishu,2.0371,45.3438,75.87,75.87,84,13,16.89,SO
Vila Velha,-20.3297,-40.2925,69.94,71.55,83,75,6.91,BR
Mwanza,-2.5167,32.9,69.44,69.44,75,86,3.0,TZ
Zyryanka,65.75,150.85,71.69,71.69,44,57,21.63,RU
Fort Nelson,58.8053,-122.7002,69.39,69.39,64,75,6.91,CA
Media Luna,20.1419,-77.435,83.23,83.23,77,60,1.88,CU
Talnakh,69.4865,88.3972,43.21,43.21,70,20,16.02,RU
Ipilan,8.8431,117.9033,79.05,79.05,86,100,9.08,PH
Ponta do Sol,32.6667,-17.1,70.54,72.23,79,3,2.37,PT
Ivdel',60.6911,60.4206,56.89,56.89,80,100,4.45,RU
Te Anau,-45.4167,167.7167,42.73,42.73,95,83,6.6,NZ
Saint-Philippe,-21.3585,55.7679,67.59,67.59,80,62,14.52,RE
Saskylakh,71.9167,114.0833,44.62,44.62,82,99,11.3,RU
Fortuna,40.5982,-124.1573,65.8,67.93,81,0,12.66,US
Great Bend,38.3645,-98.7648,93.33,93.33,49,20,6.91,US
Monrovia,6.3005,-10.7969,76.77,76.77,81,100,9.31,LR
Bowling Green,36.9903,-86.4436,78.89,79.38,86,100,9.22,US
Poum,-20.2333,164.0167,72.36,72.36,71,66,12.1,NC
Angoche,-16.2325,39.9086,70.93,70.93,81,5,3.98,MZ
Saint Anthony,45.0205,-93.218,83.35,85.62,62,100,17.27,US
Namatanai,-3.6667,152.4333,83.23,83.23,72,94,8.5,PG
Hermanus,-34.4187,19.2345,48.78,48.78,72,2,6.64,ZA
Sapele,5.8941,5.6767,73.56,73.56,91,100,4.09,NG
Tessalit,20.1986,1.0114,95.76,95.76,17,82,6.67,ML
Buala,-8.145,159.5921,84.54,84.54,71,14,12.3,SB
Tasiilaq,65.6145,-37.6368,48.36,48.36,50,43,5.53,GL
Inhambane,-23.865,35.3833,66.25,66.25,82,6,5.77,MZ
Ahipara,-35.1667,173.1667,56.79,56.79,61,10,7.29,NZ
San Patricio,28.017,-97.5169,91.65,97.52,50,50,17.31,US
Ketchikan,55.3422,-131.6461,63.07,63.07,94,100,6.91,US
Pangnirtung,66.1451,-65.7125,48.76,48.76,80,99,1.81,CA
Khandyga,62.6667,135.6,76.42,76.42,56,48,4.16,RU
Zhalantun,48.0,122.7167,70.88,70.88,84,92,5.44,CN
Solnechnyy,50.7214,136.6319,73.69,73.69,75,35,6.06,RU
Teguise,29.0605,-13.564,70.02,70.02,83,20,19.57,ES
Nentón,15.8,-91.75,74.57,74.57,88,99,3.58,GT
El Suyatal,14.5167,-87.2167,80.64,80.64,60,68,4.52,HN
Anadyr,64.75,177.4833,57.0,57.7,62,0,8.95,RU
Hofn,64.2539,-15.2082,52.41,52.41,62,82,10.38,IS
Līsakovsk,52.5369,62.4936,61.09,61.09,87,14,5.19,KZ
Morón,-34.6534,-58.6198,56.71,58.89,77,2,3.96,AR
Berdigestyakh,62.0989,126.6992,69.08,69.08,85,99,8.25,RU
Malé,4.1748,73.5089,82.35,82.35,78,100,19.57,MV
Husavik,66.0449,-17.3389,42.26,42.26,91,100,14.54,IS
Humaitá,-7.5061,-63.0208,85.41,85.41,40,35,1.28,BR
Srednekolymsk,67.45,153.6833,72.95,72.95,35,83,14.76,RU
Bambanglipuro,-7.95,110.2833,71.24,71.24,89,24,3.47,ID
Venice,27.0998,-82.4543,91.38,94.14,65,20,8.05,US
Payo,-3.7508,103.6372,72.03,72.03,93,99,2.01,ID
Salalah,17.0151,54.0924,77.09,77.09,88,75,8.05,OM
Amapá,1.0,-52.0,73.4,73.4,96,87,2.62,BR
Shizukuishi,39.6833,140.9833,81.84,81.84,74,97,3.51,JP
Klaksvík,62.2266,-6.589,50.4,50.4,85,28,12.57,FO
Mastic Beach,40.7668,-72.8521,79.29,81.99,60,0,6.91,US
Karasburg,-28.0167,18.75,45.59,45.59,30,0,10.09,NA
New Norfolk,-42.7826,147.0587,44.19,50.92,80,99,7.0,AU
Barrow,71.2906,-156.7887,41.92,41.92,77,52,8.99,US
Ribeira Grande,38.5167,-28.7,74.44,74.44,71,17,2.59,PT
Arrondissement de Saintes,45.6667,-0.75,65.35,69.19,94,0,9.08,FR
Freeport,40.6576,-73.5832,79.27,82.38,62,0,12.66,US
Tuatapere,-46.1333,167.6833,44.17,44.17,85,84,8.12,NZ
Igrim,63.1906,64.4162,49.53,49.53,78,21,5.41,RU
George Town,5.4112,100.3354,80.55,81.9,89,40,2.3,MY
Sebrovo,50.0981,43.2976,68.83,68.83,77,39,9.78,RU
Moree,-29.4667,149.85,53.6,53.6,86,100,8.84,AU
Shizilu,35.1711,118.8289,76.98,76.98,88,7,5.35,CN
Pedernales,18.0384,-71.744,88.29,88.29,58,38,20.15,DO
Fukuechō,32.6881,128.8419,81.91,81.91,86,19,37.69,JP
Valparaíso,-33.0393,-71.6273,59.23,59.23,71,0,3.44,CL
Tlalnepantla,19.5269,-99.2217,74.55,74.64,31,75,0.0,MX
Snåase,64.2457,12.3778,55.81,55.81,99,100,3.94,NO
Leningradskiy,69.3833,178.4167,50.77,50.77,63,51,6.11,RU
Los Llanos de Aridane,28.6585,-17.9182,68.13,69.55,93,75,16.11,ES
Saldanha,-33.0117,17.9442,44.65,44.65,79,0,13.96,ZA
Lüderitz,-26.6481,15.1594,58.6,58.6,51,0,9.35,NA
San Cristobal,7.7669,-72.225,80.78,80.78,96,60,3.51,VE
Nome,64.5011,-165.4064,55.47,59.16,88,100,9.22,US
Belaya Gora,68.5333,146.4167,75.25,75.25,36,87,10.87,RU
Askarovo,53.3372,58.5089,56.35,56.35,88,40,6.71,RU
Araouane,18.9048,-3.5265,92.43,92.43,35,35,6.64,ML
Iranshahr,27.2025,60.6848,83.35,83.35,65,98,4.99,IR
Nago,26.5881,127.9761,77.43,77.45,90,100,15.75,JP
Kaitangata,-46.2817,169.8464,41.95,41.95,77,7,7.31,NZ
Yārāda,17.65,83.2667,79.12,79.12,94,40,2.3,IN
Conakry,9.538,-13.6773,77.07,77.07,94,75,6.91,GN
Camaná,-16.6228,-72.7111,59.99,59.99,81,61,5.19,PE
Padang,-0.9492,100.3543,77.41,77.41,86,100,3.29,ID
Voyvozh,62.892,54.9635,57.81,57.81,77,99,7.07,RU
Nampula,-15.1165,39.2666,66.15,66.15,94,40,1.14,MZ
Zhangaözen,43.3,52.8,81.05,81.05,28,0,9.35,KZ
Sergeevka,53.88,67.4158,59.59,59.59,93,48,5.77,KZ
Provideniya,64.3833,-173.3,48.31,48.36,81,0,8.99,RU
San Isidro,-12.1167,-77.05,63.01,63.01,80,100,10.36,PE
Varjota,-4.1944,-40.4767,75.6,75.6,78,83,3.33,BR
Petatlán,17.5167,-101.2667,89.4,89.4,62,51,6.31,MX
Nhulunbuy,-12.2333,136.7667,72.21,72.21,94,100,3.44,AU
Weston,26.1004,-80.3998,88.0,89.62,66,20,13.8,US
Youkounkoun,12.5333,-13.1333,73.18,73.18,97,100,5.28,GN
Marawi,7.9986,124.2928,71.2,71.2,87,97,2.21,PH
Paratinga,-12.6906,-43.1842,80.11,80.11,27,13,4.47,BR
Barcelos,41.5388,-8.6151,66.34,76.68,66,0,3.42,PT
Caucayá,-0.1934,-74.7819,75.49,75.49,90,75,2.28,CO
Kyra,49.5776,111.9753,61.75,61.75,73,48,3.0,RU
Krasnosel'kup,65.7,82.4667,45.14,45.14,73,6,20.65,RU
Upernavik,72.7868,-56.1549,50.41,50.41,66,96,1.12,GL
Sinnamary,5.3833,-52.95,78.87,78.87,84,46,6.44,GF
Nemuro,43.3236,145.575,59.49,59.49,89,99,9.06,JP
Xiongzhou,25.1167,114.3,79.92,79.92,74,13,2.01,CN
Örnsköldsvik,63.2909,18.7153,56.35,56.35,100,100,4.61,SE
Batemans Bay,-35.7167,150.1833,54.1,54.1,64,67,10.85,AU
Ust'-Shonosha,61.1531,41.343,51.49,51.49,96,54,4.92,RU
Geraldton,-28.7667,114.6,57.61,57.61,72,100,16.11,AU
Benemérito de las Américas,16.5167,-90.6439,74.3,74.3,98,97,1.52,MX
Toora-Khem,52.4675,96.11,56.48,56.48,94,53,0.69,RU
Nogliki,51.8333,143.1667,59.41,59.41,77,38,10.8,RU
Cayenne,4.9333,-52.3333,83.08,83.08,1,20,3.44,GF
Chilca,-12.5211,-76.7372,60.48,60.48,84,19,7.96,PE
Yarmouth,41.7057,-70.2286,77.14,78.91,71,0,12.66,US
Grand Gaube,-20.0064,57.6608,70.38,70.38,72,8,5.01,MU
Half Moon Bay,37.4636,-122.4286,67.73,78.53,77,75,18.41,US
Sortavala,61.7053,30.6918,57.18,57.18,85,99,5.06,RU
Suntar,62.1444,117.6319,63.64,63.64,93,99,4.54,RU
Port Alfred,-33.5906,26.891,53.47,53.47,74,21,12.1,ZA
Ponta Delgada,37.7333,-25.6667,72.32,72.32,78,75,3.44,PT
Tondano,1.3038,124.9112,68.09,68.09,87,98,1.54,ID
Wairoa,-39.0333,177.3667,53.85,53.85,45,0,2.13,NZ
Avera,33.194,-82.5271,93.81,94.51,25,3,9.57,US
Kulhudhuffushi,6.6221,73.07,77.0,77.0,91,100,34.43,MV
Laguna,38.421,-121.4238,85.77,90.01,46,0,10.36,US
Valdivia,-39.8142,-73.2459,46.49,46.49,97,100,1.5,CL
Chifeng,42.2683,118.9636,75.6,75.6,69,4,3.53,CN
Hay River,60.8156,-115.7999,64.38,64.38,48,20,10.36,CA
Sosnovo-Ozerskoye,52.5249,111.5418,58.19,58.19,85,47,8.05,RU
Norman Wells,65.282,-126.8329,71.64,71.64,46,20,13.8,CA
Lorengau,-2.0226,147.2712,84.79,84.79,70,100,11.97,PG
Saint-Pierre,-21.3393,55.4781,67.03,67.91,66,75,6.91,RE
Tiksi,71.6872,128.8694,42.08,42.08,94,100,14.05,RU
Epsom,51.3305,-0.2701,68.88,71.89,77,99,1.99,GB
Jambi City,-1.6,103.6167,73.54,73.54,98,100,2.84,ID
Cabo San Lucas,22.8909,-109.9124,88.63,92.05,69,40,11.5,MX
Aktau,43.65,51.2,75.78,75.78,46,0,9.73,KZ
Oistins,13.0667,-59.5333,82.49,82.49,78,40,19.57,BB
Nikolskoye,59.7035,30.7861,56.98,60.8,82,100,3.6,RU
Ankara,39.9199,32.8543,74.84,76.21,57,0,9.22,TR
Alofi,-19.0595,-169.9187,80.49,80.49,74,2,13.8,NU
Esil,51.9556,66.4042,62.94,62.94,76,24,6.93,KZ
Buchanan,5.8808,-10.0467,75.97,75.97,85,100,7.31,LR
Glenluce,54.8798,-4.8084,51.66,51.66,84,45,8.16,GB
Maragogi,-9.0122,-35.2225,74.7,74.7,85,30,8.97,BR
Tuy Hoa,13.0833,109.3,77.25,77.25,90,100,4.76,VN
Sioux Lookout,50.1001,-91.917,68.07,68.07,94,75,3.44,CA
Neuquén,-38.9516,-68.0591,53.49,53.49,62,0,0.0,AR
Khovd,48.0056,91.6419,64.85,64.85,58,100,0.98,MN
Bubaque,11.2833,-15.8333,79.52,79.52,78,97,16.02,GW
Progreso,21.2833,-89.6667,91.11,93.31,75,85,17.54,MX
High Prairie,55.4334,-116.4858,75.49,75.49,46,85,9.4,CA
Palmer,42.1584,-72.3287,79.27,82.65,59,75,10.36,US
Béboto,8.2668,16.939,70.23,70.23,95,100,3.65,TD
Bathsheba,13.2167,-59.5167,82.06,83.01,88,40,19.57,BB
Ruidoso,33.3317,-105.673,68.95,79.86,66,68,6.91,US
Mõisaküla,58.0922,25.1864,58.26,58.26,73,100,4.65,EE
Southbridge,42.0751,-72.0334,79.63,82.42,60,85,5.64,US
Saint Matthews,38.2529,-85.6558,78.35,80.31,76,100,4.61,US
Comodoro Rivadavia,-45.8667,-67.5,42.66,42.66,45,0,3.44,AR
Hervey Bay,-25.2986,152.8535,64.96,64.96,74,100,5.37,AU
Lompoc,34.6391,-120.4579,72.28,75.58,70,0,17.27,US
Revda,56.801,59.9303,55.38,55.38,99,83,3.62,RU
Bonthe,7.5264,-12.505,76.44,76.44,82,100,10.11,SL
Yazman,29.1212,71.7446,87.73,87.73,69,65,13.27,PK
Juegang,32.3174,121.1855,81.91,81.91,87,0,11.95,CN
East London,-33.0153,27.9116,54.77,54.77,63,5,8.5,ZA
Parker,32.7668,-97.8003,101.71,104.72,26,100,1.01,US
Novoagansk,61.9449,76.6625,47.97,47.97,81,1,8.75,RU
La Ronge,55.1001,-105.2842,70.05,70.05,49,75,12.66,CA
Brae,60.3964,-1.353,51.31,51.31,83,34,9.08,GB
Paita,-5.0892,-81.1144,63.73,63.73,82,5,16.51,PE
Lagoa,39.05,-27.9833,72.5,72.5,74,0,6.87,PT
Katsuura,35.1333,140.3,84.56,84.56,76,82,5.14,JP
Altagracia de Orituco,9.8601,-66.3814,74.97,74.97,85,64,5.06,VE
Klyuchi,52.2667,79.1667,62.46,62.46,90,88,4.9,RU
Chamalières,45.7756,3.0631,68.72,68.72,64,0,1.14,FR
Rocha,-34.4833,-54.3333,50.2,50.2,79,97,5.77,UY
Senneterre,48.3835,-77.2328,75.42,75.42,54,61,8.37,CA
Ibaiti,-23.8486,-50.1878,56.71,56.71,61,0,2.24,BR
Lata,40.1629,-8.3327,69.69,69.69,61,0,2.3,PT
Eyl,7.9803,49.8164,76.51,76.51,72,15,24.79,SO
Sancti Spíritus,21.9297,-79.4425,81.9,81.9,81,69,11.5,CU
Kandara,25.7191,73.2765,80.06,80.06,82,34,12.93,IN
Westport,41.1415,-73.3579,80.15,83.71,63,0,10.36,US
Mount Isa,-20.7333,139.5,55.17,55.17,58,0,0.0,AU
Vilcún,-38.65,-72.2333,42.4,42.4,96,95,1.68,CL
Freetown,8.484,-13.2299,76.06,76.06,86,100,10.38,SL
San Jose,37.3394,-121.895,77.5,86.9,61,75,10.36,US
Airai,-8.9266,125.4092,56.66,56.66,94,58,3.15,TL
Makokou,0.5738,12.8642,69.42,69.42,83,95,3.0,GA
Buraidah,26.326,43.975,88.25,88.25,49,100,15.28,SA
Willowmore,-33.2926,23.4895,40.01,40.01,70,2,2.77,ZA
Verāval,20.9,70.3667,80.94,80.94,82,93,14.97,IN
Tomatlán,19.9333,-105.25,90.66,90.66,52,55,9.91,MX
San Policarpo,12.1791,125.5072,81.72,81.72,82,100,7.63,PH
Winnemucca,40.973,-117.7357,102.25,102.25,6,0,8.05,US
Baykit,61.67,96.37,60.82,60.82,91,87,3.56,RU
Finschhafen,-6.6024,147.8681,82.92,82.92,69,57,9.4,PG
Lesozavodsk,45.4794,133.4244,77.07,77.07,85,100,2.82,RU
Hede,33.7681,120.2517,78.91,78.91,89,0,7.78,CN
Sobolevo,54.4299,31.8996,59.52,59.52,64,100,7.31,RU
Międzyrzecz,52.4446,15.578,68.23,68.23,59,57,4.7,PL
Mahenge,-8.6833,36.7167,58.91,58.91,83,2,0.87,TZ
Iqaluit,63.7506,-68.5145,50.7,51.53,76,75,11.5,CA
Mizdah,31.4451,12.9801,75.56,75.56,54,2,0.85,LY
Lodeynoye Pole,60.726,33.5531,50.56,50.56,90,13,3.06,RU
Ulaanbaatar,47.9077,106.8832,48.33,48.33,87,0,0.0,MN
San Andrés,12.5847,-81.7006,84.22,84.22,84,40,12.66,CO
Camagüey,21.3808,-77.9169,88.14,88.14,66,40,20.71,CU
Uruçuí,-7.2294,-44.5561,81.59,81.59,48,64,3.27,BR
Hamilton,39.1834,-84.5333,77.07,80.53,73,75,8.05,US
Placerville,38.7296,-120.7986,91.36,96.04,34,0,5.75,US
Chui,-33.6971,-53.4616,49.35,49.35,79,94,5.88,UY
Kjøllefjord,70.9457,27.3465,57.02,57.25,94,100,0.0,NO
Seymchan,62.8833,152.4333,65.89,65.89,55,50,11.92,RU
Sailāna,23.4667,74.9167,73.6,73.6,92,74,10.31,IN
Doha,25.2867,51.5333,93.15,93.51,70,0,8.05,QA
Kafanchan,9.5833,8.3,66.49,66.49,98,84,2.66,NG
Sechura,-5.5569,-80.8222,67.68,67.68,68,8,18.03,PE
Ulladulla,-35.35,150.4667,56.97,56.97,66,71,11.9,AU
San Quintín,30.4833,-115.95,76.17,76.17,60,26,10.27,MX
Ingham,42.6,-84.3833,81.34,83.82,53,40,4.61,US
Oranjemund,-28.55,16.4333,53.47,53.47,57,0,9.62,NA
Mackay,-21.15,149.2,65.68,65.68,79,85,7.31,AU
Camacha,33.0833,-16.3333,67.42,67.42,78,40,9.22,PT
Kibala,9.1104,18.3463,73.35,73.35,94,20,2.3,TD
Mount Gambier,-37.8333,140.7667,46.31,46.31,93,75,12.66,AU
Zdvinsk,54.7021,78.661,60.71,60.71,98,54,10.33,RU
Ruteng,-8.6136,120.4721,62.1,62.1,87,93,1.63,ID
Ucluelet,48.9329,-125.5528,68.09,71.91,81,12,1.99,CA
Anjiang,27.3194,110.1031,76.14,76.14,88,10,2.13,CN
Athabasca,54.7169,-113.2854,66.61,66.61,52,72,3.44,CA
Preston,53.7667,-2.7167,54.3,57.85,89,55,3.29,GB
Llandrindod Wells,52.2416,-3.3787,56.37,56.37,89,75,2.24,GB
Henties Bay,-22.116,14.2845,53.53,53.53,76,72,2.51,NA
Quryq,43.2,51.65,81.0,81.0,39,0,7.9,KZ
Faanui,-16.4833,-151.75,78.75,78.75,71,13,26.6,PF
Khani,41.9563,42.9566,63.97,63.97,81,38,4.52,GE
Saint George,37.1041,-113.5841,90.68,91.99,40,0,17.27,US
Canberra,-35.2835,149.1281,45.88,47.44,90,100,13.8,AU
Bembèrèkè,10.2283,2.6634,70.41,70.41,94,97,4.45,BJ
Kidal,18.4411,1.4078,96.71,96.71,17,69,6.33,ML
Gravdal,68.1214,13.5031,54.41,54.41,95,69,7.67,NO
Imbituba,-28.24,-48.6703,62.1,62.1,86,23,5.99,BR
Tadó,5.266,-76.5649,80.42,80.42,95,99,3.49,CO
Hasaki,35.7333,140.8333,84.6,84.6,79,97,1.48,JP
Neath,51.6632,-3.8044,58.78,63.45,82,48,5.82,GB
Dzaoudzi,-12.7887,45.2699,71.49,71.49,94,0,2.3,YT
Luanda,-8.8368,13.2343,68.0,68.0,94,20,9.22,AO
Ozernovskiy,51.5,156.5167,55.02,55.02,85,73,4.36,RU
Chegdomyn,51.1167,133.0167,70.9,70.9,93,99,1.7,RU
Kuldīga,56.974,21.9572,53.29,53.29,83,100,5.32,LV
Puerto Carreño,6.189,-67.4859,78.78,78.78,89,40,2.3,CO
Aquiraz,-3.9014,-38.3911,78.89,80.19,86,9,10.54,BR
Neftegorsk,52.802,51.166,63.14,63.14,81,81,5.08,RU
Caravelas,-17.7125,-39.2481,69.98,69.98,91,80,7.96,BR
Sibolga,1.7427,98.7792,75.74,75.74,87,100,3.36,ID
Ouésso,1.6136,16.0517,72.43,72.43,82,98,2.75,CG
Marsh Harbour,26.5412,-77.0636,83.73,83.73,69,55,12.26,BS
City of San Pedro,14.35,121.0167,76.69,78.35,94,20,1.14,PH
Mâncio Lima,-7.6142,-72.8958,84.27,84.27,79,40,3.44,BR
Zavoronezhskoye,52.8801,40.5526,60.15,60.15,62,75,6.2,RU
Câmara de Lobos,32.6333,-16.9667,71.15,72.23,84,20,12.66,PT
Craig,40.5153,-107.5464,81.43,85.62,34,0,20.71,US
Beloha,-25.1667,45.05,64.22,64.22,93,6,2.93,MG
Alice Springs,-23.7,133.8833,44.15,44.15,65,2,6.91,AU
Charalá,6.2858,-73.1472,67.95,67.95,93,94,0.92,CO
Imeni Poliny Osipenko,52.4201,136.4853,71.49,71.49,77,46,8.3,RU
Lethem,3.3803,-59.7968,76.78,76.78,87,55,5.03,GY
Oshikango,-17.4,15.8833,54.59,54.59,33,3,7.11,NA
Mercedes,-34.6515,-59.4307,56.82,57.63,69,1,6.22,AR
Codrington,-38.2667,141.9667,46.08,46.08,91,33,16.2,AU
Impfondo,1.6381,18.0667,71.92,71.92,76,78,1.19,CG
Mahébourg,-20.4081,57.7,70.09,70.25,73,75,11.5,MU
Anaconda,46.1285,-112.9423,92.39,92.39,12,9,14.12,US
Port-Cartier,50.0334,-66.8654,76.03,78.48,80,69,3.62,CA
Hīt,33.6416,42.8251,95.11,95.11,14,3,9.55,IQ
Constitución,-35.3333,-72.4167,49.84,49.84,90,71,4.76,CL
Cherskiy,68.75,161.3,67.95,67.95,41,17,19.24,RU
Laas,46.6166,10.7002,65.66,67.08,88,3,4.65,IT
Kyzyl-Suu,42.3414,78.0056,57.2,57.2,73,90,3.4,KG
Am Timan,11.0297,20.2827,71.91,71.91,94,100,5.37,TD
Bac Lieu,9.285,105.7244,79.88,79.88,88,100,8.34,VN
Illela,13.7292,5.2975,76.93,76.93,72,62,9.17,NG
Shahrud,36.4182,54.9763,70.63,70.63,50,21,5.59,IR
Butwāl,27.7006,83.4484,77.29,77.29,93,73,1.77,NP
Alihe,50.5667,123.7167,65.89,65.89,91,46,1.92,CN
Mananjary,-21.2167,48.3333,64.76,64.76,93,7,4.59,MG
Kieta,-6.2167,155.6333,83.21,83.21,75,21,5.84,PG
Port-Gentil,-0.7193,8.7815,74.98,74.98,85,7,14.25,GA
Ust'-Ishim,57.6935,71.1665,55.13,55.13,79,82,7.58,RU
Xinqing,48.2333,129.5,75.45,75.45,86,8,3.36,CN
Adrar,20.5022,-10.0711,95.81,95.81,29,3,10.09,MR
Saint Lawrence,36.0553,14.204,80.85,80.85,86,0,1.01,MT
Eganville,45.5334,-77.0994,81.52,81.52,55,58,11.03,CA
Safford,32.834,-109.7076,92.32,95.11,35,0,4.61,US
Tura,25.5198,90.2201,73.65,73.65,99,100,5.75,IN
Khorramabad,33.4878,48.3558,82.02,82.02,47,0,0.0,IR
Tall Kayf,37.0833,41.0667,86.7,86.7,23,0,6.35,TR
Puerto Escondido,15.85,-97.0667,88.63,88.63,62,40,9.22,MX
Polunochnoye,60.8697,60.4153,54.86,54.86,78,100,4.41,RU
Puerto Maldonado,-12.6,-69.1833,74.34,74.34,73,7,3.53,PE
Ansermanuevo,4.7972,-75.995,77.77,81.77,91,95,5.19,CO
Vicuña,-30.0319,-70.7081,68.77,68.77,58,81,0.78,CL
Saquarema,-22.92,-42.5103,66.24,66.24,70,0,6.93,BR
Gonder,12.6,37.4667,56.41,56.41,94,70,3.8,ET
Aklavik,68.2191,-135.0107,66.02,66.02,46,90,1.66,CA
Chesma,53.8111,60.6533,58.12,58.12,85,23,5.19,RU
Sompeta,18.9333,84.6,82.45,82.45,83,100,8.97,IN
Joppatowne,39.4579,-76.3552,73.04,76.69,91,100,6.91,US
Kununurra,-15.7667,128.7333,57.18,57.18,77,96,4.61,AU
Vaitape,-16.5167,-151.75,78.78,78.78,71,11,25.97,PF
Canutama,-6.5339,-64.3831,84.87,84.87,49,81,3.09,BR
Santa Cruz de Tenerife,28.4682,-16.2546,71.35,80.58,91,75,15.01,ES
Hrodna,53.6884,23.8258,61.2,61.2,99,100,7.56,BY
La Roda,39.2167,-2.15,77.47,79.9,64,27,13.47,ES
Gīdolē,5.65,37.3667,59.31,59.31,65,95,4.88,ET
Mizque,-17.941,-65.3402,63.61,63.61,67,0,5.79,BO
Bowen,-20.0167,148.2333,68.05,68.05,76,69,13.82,AU
Nara,34.6851,135.8049,85.84,86.97,57,64,0.65,JP
Marzuq,14.4,46.4667,78.73,78.73,58,2,15.08,YE
Perth,-31.9333,115.8333,51.39,53.73,91,75,16.11,AU
Kayerkan,69.3497,87.7602,42.53,42.53,100,21,20.56,RU
Makakilo City,21.3469,-158.0858,82.04,82.72,51,75,16.11,US
Olafsvik,64.8945,-23.7142,48.11,48.11,65,100,10.13,IS
Bijie,27.3125,105.2942,62.55,62.55,96,99,4.81,CN
Hirara,24.8,125.2833,79.07,80.46,94,75,8.05,JP
Panzhihua,26.5851,101.7128,68.72,68.72,92,100,0.43,CN
Catuday,16.2923,119.8062,80.31,80.31,78,100,13.18,PH
Port Macquarie,-31.4333,152.9167,58.89,58.89,70,100,10.63,AU
Ixtlahuacán del Río,20.8667,-103.25,76.86,76.86,50,100,2.35,MX
Cloquet,46.7216,-92.4594,78.62,81.28,65,83,3.44,US
Gorontalo,0.5412,123.0595,75.94,75.94,94,99,1.83,ID
Yulara,-25.2406,130.9889,49.86,49.86,42,39,9.42,AU
Bartica,6.4,-58.6167,84.52,84.52,96,66,3.36,GY
Waipawa,-41.4122,175.5153,47.19,47.19,70,3,2.37,NZ
Cayey,18.1119,-66.166,80.15,81.97,76,7,3.0,PR
Boden,65.8252,21.6886,59.0,59.0,94,93,3.4,SE
Skjervøy,70.0311,20.9714,59.0,59.0,74,100,2.82,NO
Shōbara,34.85,133.0167,81.45,81.45,76,33,6.55,JP
Najrān,17.4924,44.1277,84.85,84.85,55,43,5.41,SA
Imbituva,-25.23,-50.6044,53.74,53.74,71,0,0.74,BR
Fernie,49.5,-115.0687,93.88,93.88,11,0,9.75,CA
Gisborne,-38.6533,178.0042,53.15,53.15,48,0,5.23,NZ
Tighina,46.8306,29.4711,66.97,66.97,82,100,6.69,MD
Vao,-22.6667,167.4833,69.06,69.06,77,100,26.08,NC
Sindor,62.8629,51.8905,59.27,59.27,99,100,4.81,RU
Ngama,11.7833,17.1667,77.79,77.79,77,99,7.49,TD
High Rock,26.6208,-78.2833,87.82,87.82,70,76,11.99,BS
Daru,-9.0763,143.2092,78.37,78.37,90,63,10.76,PG
Nizwá,22.9333,57.5333,83.75,83.75,63,86,2.95,OM
Christchurch,-43.5333,172.6333,43.7,48.42,71,0,2.3,NZ
Sidi Ali,36.0998,0.4206,75.83,75.83,83,0,5.26,DZ
Kankan,10.3854,-9.3057,72.75,72.75,93,86,2.26,GN
Yar-Sale,66.8333,70.8333,46.69,46.69,80,14,7.07,RU
Samarai,-10.6167,150.6667,80.76,80.76,80,61,11.72,PG
Nuuk,64.1835,-51.7216,48.81,48.81,76,20,11.5,GL
Chino Valley,34.7575,-112.4538,79.59,86.52,57,100,16.11,US
Mnogovershinnyy,53.9353,139.9242,67.5,67.5,71,37,5.75,RU
Manhattan,40.7834,-73.9662,80.06,84.42,60,0,13.8,US
Paidha,2.4167,30.9855,60.22,60.22,92,99,4.12,UG
Yelniki,54.6207,43.876,56.39,56.39,68,49,5.1,RU
Wamba,8.9333,8.6,70.38,70.38,96,65,1.45,NG
Udachny,66.4167,112.4,59.45,59.45,87,100,16.78,RU
Pryazha,61.6926,33.6216,50.25,51.03,86,66,3.2,RU
Ust-Tsilma,65.441,52.1498,60.08,60.08,91,100,6.91,RU
Coahuayana Viejo,18.7333,-103.6833,88.2,88.2,60,64,5.88,MX
Blythe,33.6103,-114.5964,106.25,106.25,17,20,17.27,US
Dingle,10.9995,122.6711,78.01,78.01,84,100,1.63,PH
Dakar,14.6937,-17.4441,80.73,80.73,89,40,13.8,SN
Lázaro Cárdenas,17.9583,-102.2,86.4,86.4,63,65,11.99,MX
Lakatoro,-16.0999,167.4164,80.46,80.46,75,38,10.71,VU
Shouguang,36.88,118.7375,78.91,78.91,90,8,3.76,CN
Nur-Sultan,51.1801,71.446,60.75,60.75,94,0,6.71,KZ
Brunswick,41.2381,-81.8418,79.88,83.14,54,40,5.75,US
Muros,42.7762,-9.0603,70.68,70.68,79,1,11.3,ES
Sampit,-2.5333,112.95,73.13,73.13,96,100,2.13,ID
Batagay-Alyta,67.8006,130.4114,71.64,71.64,53,100,8.08,RU
Anito,12.4497,125.2886,79.45,79.45,88,100,6.15,PH
